geonameid,name,continent,bias_en,resid,gdp_per_capita,latitude,longitude
1796236,Shanghai,Asia,4.714778245729683,0.5734960650921348,13303.1481543868,31.22222,121.45806
1816670,Beijing,Asia,4.714778245729683,0.5975939866305087,13303.1481543868,39.9075,116.39723
1795565,Shenzhen,Asia,5.714778245729683,1.5941349714412087,13303.1481543868,22.54554,114.0683
1809858,Guangzhou,Asia,4.714778245729683,0.6049516327241466,13303.1481543868,23.11667,113.25
1566083,Ho Chi Minh City,Asia,5.570887889980154,-0.1333161010701458,4717.29028732449,10.82302,106.62965
1815286,Chengdu,Asia,5.714778245729683,1.6054876458633185,13303.1481543868,30.66667,104.06667
1172451,Lahore,Asia,4.893805659434392,-0.5187795795016665,1478.77277977996,31.558,74.35071
1275339,Mumbai,Asia,5.772559838182521,-0.3415811000289013,2694.73780859961,19.07283,72.88261
1174872,Karachi,Asia,4.893805659434392,-0.5069070368331854,1478.77277977996,24.8608,67.0104
1792947,Tianjin,Asia,4.714778245729683,0.6158404847744041,13303.1481543868,39.14222,117.17667
1273294,Delhi,Asia,4.772559838182521,-1.3358687970532168,2694.73780859961,28.65195,77.23149
1791247,Wuhan,Asia,4.714778245729683,0.6245588024085205,13303.1481543868,30.58333,114.26667
1185241,Dhaka,Asia,2.7826627864094604,-2.303113969775204,2593.41611680774,23.7104,90.40744
1835848,Seoul,Asia,3.427843615529076,0.9920952010292003,36238.639908315,37.566,126.9784
1850147,Tokyo,Asia,3.8019178836557357,1.6638222869675316,32487.0778047567,35.6895,139.69171
1812545,Dongguan,Asia,4.714778245729683,0.6127115626183386,13303.1481543868,23.01797,113.74866
1790630,Xi’an,Asia,4.714778245729683,0.5110715336576934,13303.1481543868,34.25833,108.92861
1799962,Nanjing,Asia,4.714778245729683,0.6366029237267927,13303.1481543868,32.06167,118.77778
1808926,Hangzhou,Asia,5.714778245729683,1.63277421595423,13303.1481543868,30.29365,120.16142
1811103,Foshan,Asia,4.714778245729683,0.6094816919924089,13303.1481543868,23.02677,113.13148
1642911,Jakarta,Asia,4.550133897135014,-0.5343718911447226,4925.43048751861,-6.21462,106.84513
1277333,Bengaluru,Asia,5.772559838182521,-0.36674571426168345,2694.73780859961,12.97194,77.59369
1581130,Hanoi,Asia,5.570887889980154,-0.09527247604282163,4717.29028732449,21.0245,105.84117
1814906,Chongqing,Asia,4.714778245729683,0.6810388725747476,13303.1481543868,29.56026,106.55771
1819729,Hong Kong,Asia,0.6493821994620168,-0.8935586236385991,54074.6928519479,22.27832,114.17469
98182,Baghdad,Asia,2.4356470460742594,-2.637533991831204,6073.61032342708,33.34058,44.40088
1797929,Qingdao,Asia,4.714778245729683,0.6477878066292941,13303.1481543868,36.06488,120.38042
112931,Tehran,Asia,2.523736337034875,-2.752472773674694,5190.16959024821,35.69439,51.42151
2034937,Shenyang,Asia,4.714778245729683,0.6460152371840397,13303.1481543868,41.79222,123.43278
1269843,Hyderabad,Asia,5.772559838182521,-0.29735792806963435,2694.73780859961,17.38405,78.45636
1886760,Suzhou,Asia,5.714778245729683,1.6492641052568846,13303.1481543868,31.30408,120.59538
1279233,Ahmedabad,Asia,5.772559838182521,-0.3054513650881825,2694.73780859961,23.02579,72.58727
1880252,Singapore,Asia,-1.0,-1.46607644846127,90674.066632628,1.28967,103.85007
2037013,Harbin,Asia,4.714778245729683,0.6817694268480583,13303.1481543868,45.75,126.65
1609350,Bangkok,Asia,5.308713189519222,0.24025829745309135,7346.62022142185,13.75398,100.50144
1808722,Hefei,Asia,4.714778245729683,0.655295570940142,13303.1481543868,31.86389,117.28083
1814087,Dalian,Asia,4.714778245729683,0.6744985499229035,13303.1481543868,38.91222,121.60222
1168197,Peshawar,Asia,4.893805659434392,-0.4485276441489834,1478.77277977996,34.008,71.57849
2038180,Changchun,Asia,4.714778245729683,0.6679822889425733,13303.1481543868,43.88,125.32278
105343,Jeddah,Asia,2.5392191857706568,0.003893972993725292,35121.6628687742,21.49012,39.18624
1264527,Chennai,Asia,5.772559838182521,-0.2652637712560244,2694.73780859961,13.08784,80.27847
1275004,Kolkata,Asia,4.772559838182521,-1.2659502856851335,2694.73780859961,22.56263,88.36304
1790645,Xiamen,Asia,4.714778245729683,0.6829683490409817,13303.1481543868,24.47979,118.08187
1255364,Surat,Asia,5.772559838182521,-0.29711933571938776,2694.73780859961,21.19594,72.83023
1298824,Yangon,Asia,4.905743408071377,-1.948624416540639,1359.05001560107,16.80528,96.15611
13308620,Bao'an,Asia,4.714778245729683,0.5632070438331578,13303.1481543868,22.55213,113.88288
1138958,Kabul,Asia,2.0,-5.303085234029256,413.757894705303,34.52813,69.17233
1790923,Wuxi,Asia,4.714778245729683,0.6649629571314275,13303.1481543868,31.56887,120.28857
1805753,Jinan,Asia,4.714778245729683,0.6704689215184896,13303.1481543868,36.66833,116.99722
1793511,Taiyuan,Asia,4.714778245729683,0.6696281200600982,13303.1481543868,37.86944,112.56028
1784658,Zhengzhou,Asia,4.714778245729683,0.6799562132802119,13303.1481543868,34.75778,113.64861
108410,Riyadh,Asia,2.5392191857706568,0.028484129308281148,35121.6628687742,24.68773,46.72185
12747063,New Territories,Asia,0.6493821994620168,-0.9220493380642214,54074.6928519479,22.42441,114.11095
1795270,Shijiazhuang,Asia,3.7147782457296827,-0.32672824598816597,13303.1481543868,38.04139,114.47861
1205733,Chattogram,Asia,4.78266278640946,-0.30938749942416877,2593.41611680774,22.3384,91.83168
1804651,Kunming,Asia,4.714778245729683,0.6923119888907951,13303.1481543868,25.03889,102.71833
6986104,Zhongshan,Asia,4.714778245729683,0.6712624006363601,13303.1481543868,22.52306,113.37912
1799869,Nanning,Asia,4.714778245729683,0.6750265318389044,13303.1481543868,22.81667,108.31667
1795940,Shantou,Asia,4.714778245729683,0.6757760236351036,13303.1481543868,23.35489,116.67876
1179400,Faisalabad,Asia,4.893805659434392,-0.4417612708461238,1478.77277977996,31.41554,73.08969
292223,Dubai,Asia,2.0284046260749253,0.2286032928247499,50273.5060469837,25.07725,55.30927
1848354,Yokohama,Asia,3.8019178836557357,1.7033964652381228,32487.0778047567,35.43333,139.65
1810821,Fuzhou,Asia,4.714778245729683,0.6899016455673941,13303.1481543868,26.06139,119.30611
1799397,Ningbo,Asia,4.714778245729683,0.6927559655295656,13303.1481543868,29.87819,121.54945
1798425,Puyang,Asia,4.714778245729683,0.6379453922198426,13303.1481543868,29.45679,119.88872
1794903,Shiyan,Asia,4.714778245729683,0.6642707009035878,13303.1481543868,32.6475,110.77806
1793346,Tangshan,Asia,4.714778245729683,0.6682302983982442,13303.1481543868,39.64381,118.18319
1166993,Rawalpindi,Asia,4.893805659434392,-0.42588988173179665,1478.77277977996,33.59733,73.0479
13512505,Lüliang,Asia,4.714778245729683,0.6332987128090384,13303.1481543868,37.5192,111.14436
1838524,Busan,Asia,3.427843615529076,1.0690147332903228,36238.639908315,35.10168,129.03004
1815456,Changzhou,Asia,4.714778245729683,0.6823885022333815,13303.1481543868,31.77359,119.95401
1785286,Zibo,Asia,4.714778245729683,0.6702937472031341,13303.1481543868,36.79056,118.06333
1259229,Pune,Asia,5.772559838182521,-0.2479037183579651,2694.73780859961,18.51957,73.85535
1815577,Changsha,Asia,4.714778245729683,0.7109588945678045,13303.1481543868,28.19874,112.97087
1692192,Quezon City,Asia,5.643922525349847,-0.2467277277301534,3984.8315387656,14.6488,121.0509
1269515,Jaipur,Asia,5.772559838182521,-0.24408408408193072,2694.73780859961,26.91962,75.78781
1843564,Incheon,Asia,2.427843615529076,0.06372173340959986,36238.639908315,37.45646,126.70515
1809461,Guiyang,Asia,4.714778245729683,0.6914375720535535,13303.1481543868,26.58333,106.71667
1529102,Ürümqi,Asia,3.7147782457296827,-0.2776798914669367,13303.1481543868,43.80096,87.60046
1804430,Lanzhou,Asia,4.714778245729683,0.7008580588152302,13303.1481543868,36.05701,103.83987
1806776,Huizhou,Asia,4.714778245729683,0.6913696237607301,13303.1481543868,23.11147,114.41523
1625822,Surabaya,Asia,5.550133897135014,0.5243233540814458,4925.43048751861,-7.24917,112.75083
1809078,Haikou,Asia,4.714778245729683,0.7030665141037584,13303.1481543868,20.03421,110.34651
1267995,Kanpur,Asia,4.772559838182521,-1.2570000659600966,2694.73780859961,26.46523,80.34975
1853909,Osaka,Asia,3.8019178836557357,1.746720233235242,32487.0778047567,34.69379,135.50107
1803318,Linyi,Asia,4.714778245729683,0.6897107960085211,13303.1481543868,35.06306,118.34278
1816971,Baoding,Asia,3.7147782457296827,-0.31324917666552743,13303.1481543868,38.87288,115.46246
1200109,Gazipur,Asia,4.78266278640946,-0.25118720912647774,2593.41611680774,23.99844,90.42234
1791388,Wenzhou,Asia,4.714778245729683,0.713326592757328,13303.1481543868,27.99942,120.66682
1581298,Haiphong,Asia,5.570887889980154,-0.04347794390303772,4717.29028732449,20.86481,106.68345
1785725,Yunfu,Asia,4.714778245729683,0.6630991023981512,13303.1481543868,22.92787,112.03809
6619347,Navi Mumbai,Asia,5.772559838182521,-0.26019964135485996,2694.73780859961,19.03681,73.01582
1649378,Bekasi,Asia,4.550133897135014,-0.49247651501390877,4925.43048751861,-6.2349,106.9896
1177662,Gujranwala,Asia,4.893805659434392,-0.41303134297941035,1478.77277977996,32.15567,74.18705
1797873,Huai'an,Asia,4.714778245729683,0.6842086777113696,13303.1481543868,33.58861,119.01917
1264733,Lucknow,Asia,5.772559838182521,-0.22511685405003679,2694.73780859961,26.83928,80.92313
1650357,Bandung,Asia,5.550133897135014,0.5350776700341058,4925.43048751861,-6.92222,107.60694
1214520,Medan,Asia,4.550133897135014,-0.4697281402354747,4925.43048751861,3.58333,98.66667
1262180,Nagpur,Asia,5.772559838182521,-0.23351562297362083,2694.73780859961,21.14631,79.08491
1835329,Daegu,Asia,2.427843615529076,-0.21149542832196122,36238.639908315,35.87028,128.59111
1800163,Nanchang,Asia,4.714778245729683,0.7163048645674781,13303.1481543868,28.68396,115.85306
2036892,Hohhot,Asia,4.714778245729683,0.4459586107752944,13303.1481543868,40.81056,111.65222
1856057,Nagoya,Asia,3.8019178836557357,1.745357820540606,32487.0778047567,35.18147,136.90641
124665,Mashhad,Asia,4.523736337034875,-0.9763847079811088,5190.16959024821,36.29807,59.60567
1795855,Shaoxing,Asia,4.714778245729683,0.7076481153768679,13303.1481543868,30.00237,120.57864
1799722,Nantong,Asia,4.714778245729683,0.4489017654011658,13303.1481543868,32.03028,120.87472
1819609,Kowloon,Asia,0.6493821994620168,-0.8558872678685976,54074.6928519479,22.31667,114.18333
1787093,Yantai,Asia,4.714778245729683,0.45069930294221017,13303.1481543868,37.47649,121.44081
1790437,Zhuhai,Asia,4.714778245729683,0.7317343694095495,13303.1481543868,22.27694,113.56778
1169825,Multan,Asia,4.893805659434392,-0.6855421453835167,1478.77277977996,30.19679,71.47824
2038432,Baotou,Asia,3.7147782457296827,-0.287778848198732,13303.1481543868,40.6516,109.84389
1645524,Depok,Asia,5.550133897135014,0.2566345408868571,4925.43048751861,-6.4,106.81861
1273865,Coimbatore,Asia,5.772559838182521,-0.22096788085552976,2694.73780859961,11.00555,76.96612
12359313,Qingyang,Asia,4.714778245729683,0.6444897749848781,13303.1481543868,35.70976,107.64455
170063,Aleppo,Asia,1.9363926127574635,-4.280089451511939,1051.67149587463,36.20124,37.16117
1785623,Kunshan,Asia,4.714778245729683,0.456255918074314,13303.1481543868,31.37762,120.95431
99071,Al Mawşil al Jadīdah,Asia,2.4356470460742594,-2.850195152356661,6073.61032342708,36.33271,43.10555
1791681,Weifang,Asia,4.714778245729683,0.45833522720653797,13303.1481543868,36.71,119.10194
1783621,Zunyi,Asia,4.714778245729683,0.6979510081070313,13303.1481543868,27.68667,106.90722
388349,Al Başrah al Qadīmah,Asia,2.4356470460742594,-2.848016010904,6073.61032342708,30.50316,47.81507
10859300,Lianyungang,Asia,4.714778245729683,0.7133849568668911,13303.1481543868,34.59845,119.21556
1269743,Indore,Asia,5.772559838182521,-0.5286925912131588,2694.73780859961,22.71792,75.8333
1512569,Tashkent,Asia,5.725998279305463,-0.7889713700049921,3161.70010632875,41.26465,69.21627
1810638,Ganzhou,Asia,4.714778245729683,0.46128215181339094,13303.1481543868,25.84664,114.9326
1526384,Almaty,Asia,4.629875377792034,0.7504697831750926,14154.6324958076,43.25249,76.9115
2128295,Sapporo,Asia,3.8019178836557357,1.4488268114735106,32487.0778047567,43.06667,141.35
8347664,Ordos,Asia,3.7147782457296827,-0.3422603530111257,13303.1481543868,39.6086,109.78157
71137,Sanaa,Asia,1.978050554031799,-4.593446689990662,633.887202451545,15.35452,44.20646
1176734,Hyderabad,Asia,4.893805659434392,-0.33209383750066657,1478.77277977996,25.39689,68.37718
276781,Beirut,Asia,3.6944869409480763,-2.5472889345463994,3477.72489842684,33.89332,35.50157
1625084,Tangerang,Asia,4.550133897135014,-0.46723308313256595,4925.43048751861,-6.17806,106.63
1797121,Jieyang,Asia,4.714778245729683,0.464846585906761,13303.1481543868,23.5418,116.36581
2036502,Jilin,Asia,3.7147782457296827,-0.2507851702268642,13303.1481543868,43.84652,126.5608
1800146,Nanchong,Asia,4.714778245729683,0.46675981641586084,13303.1481543868,30.79508,106.08473
2037799,Datong,Asia,3.7147782457296827,-0.5328155575631417,13303.1481543868,40.09361,113.29139
1715348,Davao,Asia,5.643922525349847,-0.30301361538662164,3984.8315387656,7.07306,125.61278
1254661,Thāne,Asia,5.772559838182521,-0.5216151335056809,2694.73780859961,19.19704,72.96355
1253573,Vadodara,Asia,5.772559838182521,-0.21693788178665319,2694.73780859961,22.29941,73.20812
1799629,Nanyang,Asia,4.714778245729683,0.6776802359643757,13303.1481543868,33.00524,112.54659
292968,Abu Dhabi,Asia,2.0284046260749253,-0.062336524621604106,50273.5060469837,24.45118,54.39696
292672,Sharjah,Asia,1.0284046260749253,-0.7590212555695652,50273.5060469837,25.3342,55.41221
1275841,Bhopal,Asia,4.772559838182521,-1.5195054337268177,2694.73780859961,23.25469,77.40289
1806299,Jiangmen,Asia,4.714778245729683,0.7285006421812152,13303.1481543868,22.58333,113.08333
1815251,Jiangyin,Asia,4.714778245729683,0.7087218564500386,13303.1481543868,31.91102,120.26302
1810845,Fuyang,Asia,4.714778245729683,0.7035430202202821,13303.1481543868,32.9,115.81667
11838258,Bayan Nur,Asia,3.7147782457296827,-0.5283906427650873,13303.1481543868,40.74143,107.38599
1815395,Chaozhou,Asia,4.714778245729683,0.7412348456067885,13303.1481543868,23.65396,116.62262
1797945,Qingyuan,Asia,4.714778245729683,0.4727037761541002,13303.1481543868,23.7,113.03333
1793724,Tai’an,Asia,4.714778245729683,0.47285697137989935,13303.1481543868,36.18528,117.12
7626690,Pimpri-Chinchwad,Asia,5.772559838182521,-0.23761548805557897,2694.73780859961,18.61867,73.80375
1720151,Caloocan,Asia,4.643922525349847,-1.5077071672689861,3984.8315387656,14.64953,120.96788
1260086,Patna,Asia,4.772559838182521,-1.2097520168084204,2694.73780859961,25.59408,85.13563
99072,Mosul,Asia,2.4356470460742594,-2.832020450532453,6073.61032342708,36.335,43.11889
12165956,Kallakurichi,Asia,4.772559838182521,-1.2548962239222705,2694.73780859961,11.73379,78.95925
1788852,Xining,Asia,4.714778245729683,0.4758860960424851,13303.1481543868,36.62554,101.75739
7283386,Changshu,Asia,4.714778245729683,0.7153114137398386,13303.1481543868,31.64615,120.74221
1633070,Palembang,Asia,4.550133897135014,-0.7210782239599922,4925.43048751861,-2.91673,104.7458
1807681,Huainan,Asia,3.7147782457296827,-0.2933605089347022,13303.1481543868,32.62639,116.99694
1627896,Semarang,Asia,5.550133897135014,0.27974025316820317,4925.43048751861,-6.99306,110.42083
1793743,Suzhou,Asia,5.714778245729683,1.7739310584767853,13303.1481543868,33.63611,116.97889
1802206,Lu’an,Asia,4.714778245729683,0.6124286639276004,13303.1481543868,31.73561,116.51688
1264728,Ludhiana,Asia,4.772559838182521,-1.2162984456319892,2694.73780859961,30.91204,75.85379
1787746,Yancheng,Asia,4.714778245729683,0.4791985116599111,13303.1481543868,33.3575,120.1573
95446,Erbil,Asia,5.435647046074259,0.470946930438072,6073.61032342708,36.19117,44.00943
1863967,Fukuoka,Asia,3.8019178836557357,1.4667723047181496,32487.0778047567,33.6,130.41667
1793505,Taizhou,Asia,4.714778245729683,0.6850505689363349,13303.1481543868,32.49069,119.90812
2037860,Daqing,Asia,4.714778245729683,0.721687920222509,13303.1481543868,46.58333,125.0
1701668,Manila,Asia,4.643922525349847,-1.5016551423760909,3984.8315387656,14.6042,120.9822
1791236,Wuhu,Asia,4.714778245729683,0.731140659179017,13303.1481543868,31.35259,118.42947
1813325,Dazhou,Asia,3.7147782457296827,-0.5193463674081205,13303.1481543868,31.2106,107.46308
1787227,Yangzhou,Asia,4.714778245729683,0.748608567173557,13303.1481543868,32.39722,119.43583
104515,Makkah,Asia,2.5392191857706568,-0.21497841445802823,35121.6628687742,21.42664,39.82563
1821306,Phnom Penh,Asia,4.779226367554623,-0.832353634581187,2627.87969756224,11.56245,104.91601
1809498,Guilin,Asia,4.714778245729683,0.48161533889698127,13303.1481543868,25.28022,110.29639
170654,Damascus,Asia,1.9363926127574635,-4.239293320170491,1051.67149587463,33.5102,36.29128
1167528,Quetta,Asia,3.893805659434392,-1.656577331430137,1478.77277977996,30.18414,67.00141
1784853,Zhaoqing,Asia,4.714778245729683,0.7321826717060222,13303.1481543868,23.04893,112.46091
1800627,Mianyang,Asia,4.714778245729683,0.4828827490583709,13303.1481543868,31.46784,104.68168
418863,Isfahan,Asia,4.523736337034875,-0.6372773999715919,5190.16959024821,32.65246,51.67462
12358576,Wanzhou,Asia,4.714778245729683,0.4831177538676936,13303.1481543868,30.76451,108.39586
1798449,Putian,Asia,4.714778245729683,0.7350042952780012,13303.1481543868,25.43944,119.01028
1859642,Kawasaki,Asia,2.8019178836557357,0.47094823284818466,32487.0778047567,35.52056,139.71722
1783934,Shangqiu,Asia,4.714778245729683,0.7281735915582974,13303.1481543868,34.45,115.65
1859171,Kobe,Asia,3.8019178836557357,1.4717076479178188,32487.0778047567,34.6913,135.183
1586203,Cần Thơ,Asia,5.570887889980154,-0.006805793624958589,4717.29028732449,10.03711,105.78825
1336135,Khulna,Asia,4.78266278640946,-0.45350187009030307,2593.41611680774,22.80979,89.56439
1786657,Yinchuan,Asia,4.714778245729683,0.7535338055144809,13303.1481543868,38.46806,106.27306
1261731,Nashik,Asia,5.772559838182521,-0.5025878713656029,2694.73780859961,19.99727,73.79096
8400694,Taizhou,Asia,4.714778245729683,0.692031822193071,13303.1481543868,28.66266,121.43312
1814870,Yiwu,Asia,4.714778245729683,0.7579354955004174,13303.1481543868,29.31506,120.07676
1835235,Daejeon,Asia,2.427843615529076,0.11630750641007293,36238.639908315,36.34913,127.38493
1797353,Quanzhou,Asia,4.714778245729683,0.48763544584046237,13303.1481543868,24.91389,118.58583
1264521,Madurai,Asia,5.772559838182521,-0.20032577512487126,2694.73780859961,9.919,78.11953
1805528,Jinhua,Asia,4.714778245729683,0.7383682635239541,13303.1481543868,29.10678,119.64421
1857910,Kyoto,Asia,3.8019178836557357,1.4753552412026898,32487.0778047567,35.02107,135.75385
1806602,Cixi,Asia,4.714778245729683,0.6908493583494124,13303.1481543868,30.1764,121.2457
1791121,Changde,Asia,4.714778245729683,0.4883471773196586,13303.1481543868,29.03205,111.69844
1735161,Kuala Lumpur,Asia,4.8572382844051125,0.48880861701015554,11874.4273684245,3.1412,101.68653
1804879,Kaifeng,Asia,4.714778245729683,0.7687081884960758,13303.1481543868,34.7986,114.30742
2038632,Anshan,Asia,4.714778245729683,0.48879998964013005,13303.1481543868,41.12361,122.99
128747,Karaj,Asia,4.523736337034875,-0.6586267857872743,5190.16959024821,35.83266,50.99155
1283240,Kathmandu,Asia,4.896942859170583,-1.9250452172070869,1447.31004458428,27.70169,85.3206
10942359,Baoji,Asia,4.714778245729683,0.7301273328162257,13303.1481543868,34.36775,107.23705
1793771,Suqian,Asia,4.714778245729683,0.48955676463810427,13303.1481543868,33.94917,118.29583
1803300,Liuzhou,Asia,4.714778245729683,0.741563202315584,13303.1481543868,24.32405,109.40698
1254361,Tirunelveli,Asia,5.772559838182521,-0.49953829883038825,2694.73780859961,8.72742,77.6838
1787331,Zhangjiagang,Asia,4.714778245729683,0.730929845103498,13303.1481543868,31.865,120.53889
1279259,Agra,Asia,4.772559838182521,-1.4991798536044536,2694.73780859961,27.18333,78.01667
113646,Tabriz,Asia,4.523736337034875,-0.6384670758125894,5190.16959024821,38.08,46.2919
1622786,Makassar,Asia,5.550133897135014,0.29300699719474466,4925.43048751861,-5.14861,119.43194
1797658,Jinjiang,Asia,4.714778245729683,0.6788713296585644,13303.1481543868,24.81978,118.57415
1271951,Faridabad,Asia,4.772559838182521,-1.4981812475934015,2694.73780859961,28.41124,77.31316
1816234,Bozhou,Asia,4.714778245729683,0.723059309000492,13303.1481543868,33.87722,115.77028
1797318,Qujing,Asia,4.714778245729683,0.49137642918360847,13303.1481543868,25.48333,103.78333
8581443,South Tangerang,Asia,5.550133897135014,0.5394929917571396,4925.43048751861,-6.28862,106.71789
1784990,Zhanjiang,Asia,4.714778245729683,0.4918685704718637,13303.1481543868,21.23391,110.38749
2037355,Fushun,Asia,3.7147782457296827,-0.2655197780650074,13303.1481543868,41.88669,123.94363
1841811,Gwangju,Asia,2.427843615529076,-0.16486368979504906,36238.639908315,35.15472,126.91556
1258847,Rājkot,Asia,5.772559838182521,-0.3880911448441724,2694.73780859961,22.29161,70.79322
1801792,Luoyang,Asia,4.714778245729683,0.492512443409689,13303.1481543868,34.67345,112.43684
1802875,Guankou,Asia,4.714778245729683,0.663020523934124,13303.1481543868,28.15861,113.62709
1580240,Huế,Asia,5.570887889980154,-0.2605989576043255,4717.29028732449,16.4619,107.59546
1262111,Najafgarh,Asia,4.772559838182521,-1.2369490621877874,2694.73780859961,28.60922,76.97982
1808963,Handan,Asia,3.7147782457296827,-0.5054047668215613,13303.1481543868,36.60999,114.48764
1183460,Bannu,Asia,3.893805659434392,-1.3861322903039852,1478.77277977996,32.98527,70.60403
1786764,Yichang,Asia,4.714778245729683,0.4951303798891207,13303.1481543868,30.71444,111.28472
1808198,Heze,Asia,3.7147782457296827,-0.2708781750324487,13303.1481543868,35.23929,115.47358
1269300,Jamshedpur,Asia,5.772559838182521,-0.18714607901288094,2694.73780859961,22.80278,86.18545
99532,Basrah,Asia,2.4356470460742594,-2.810904990126729,6073.61032342708,30.50852,47.7804
6940394,Saitama,Asia,2.8019178836557357,0.7351644802053854,32487.0778047567,35.90807,139.65657
1270926,Gorakhpur,Asia,4.772559838182521,-1.197996599224152,2694.73780859961,29.44768,75.67206
8533133,Liupanshui,Asia,3.7147782457296827,-0.5029212782223436,13303.1481543868,26.59444,104.83333
1684308,Taguig,Asia,5.643922525349847,-0.1906617310253118,3984.8315387656,14.5243,121.0792
1801180,Maoming,Asia,4.714778245729683,0.49795787615578924,13303.1481543868,21.66625,110.91364
109223,Madinah,Asia,3.5392191857706568,1.0131068686996008,35121.6628687742,24.46861,39.61417
1797551,Qinzhou,Asia,4.714778245729683,0.49874166252616625,13303.1481543868,21.98247,108.65061
1801934,Luohe,Asia,4.714778245729683,0.7229393609730845,13303.1481543868,33.56394,114.04272
1790587,Xiangyang,Asia,4.714778245729683,0.4988489812782806,13303.1481543868,32.0422,112.14479
1806408,Yangjiang,Asia,4.714778245729683,0.7355208777672164,13303.1481543868,21.85563,111.96272
1786760,Yixing,Asia,4.714778245729683,0.49946430028585276,13303.1481543868,31.36059,119.82016
1259652,Pimpri,Asia,5.772559838182521,-0.2736944387830045,2694.73780859961,18.62292,73.80696
1583992,Da Nang,Asia,5.570887889980154,-0.2536470035608067,4717.29028732449,16.06778,108.22083
524901,Moscow,Europe,3.9496295839291307,-0.26879573639562704,14889.0185546875,55.75204,37.61781
2643743,London,Europe,0.7084345633476685,-1.1607016466489775,53246.3676145108,51.50853,-0.12574
498817,Saint Petersburg,Europe,4.949629583929131,0.7859158407146856,14889.0185546875,59.93863,30.31413
2950159,Berlin,Europe,1.3924940395485335,-0.1887385797988701,56103.7323182554,52.52437,13.41053
3117735,Madrid,Europe,3.689815373465785,0.7995469362675554,35326.7683069278,40.4165,-3.70256
703448,Kyiv,Europe,6.0,0.49137266725719186,5389.47314453125,50.45466,30.5238
3169070,Rome,Europe,2.130485922356667,-0.19255923390850294,40385.3413957669,41.89193,12.51133
2988507,Paris,Europe,2.4982716943291816,0.8138621458203557,46103.0840855884,48.85341,2.3488
683506,Bucharest,Europe,4.3756364836925545,0.6652159378343256,20080.2096215595,44.43225,26.10626
2911298,Hamburg,Europe,1.3924940395485335,-0.15033634841613708,56103.7323182554,53.55073,9.99302
625144,Minsk,Europe,4.676231503468854,-0.8168552240361562,8317.63399913792,53.90019,27.56653
3054643,Budapest,Europe,4.020470812176583,0.8227945974594499,23292.3263882478,47.49835,19.04045
756135,Warsaw,Europe,3.8202010027460247,0.6569274085062267,25103.565661423,52.22977,21.01178
2761369,Vienna,Europe,2.1530925023067375,0.6397000881638952,58268.8787651601,48.20849,16.37208
3128760,Barcelona,Europe,3.689815373465785,0.8579284796685265,35326.7683069278,41.38879,2.15899
1496747,Novosibirsk,Europe,3.9496295839291307,-0.13847231260798143,14889.0185546875,55.02259,82.93175
2673730,Stockholm,Europe,1.2804024959616456,-0.627198366403614,57117.4877440616,59.32938,18.06871
1486209,Yekaterinburg,Europe,4.949629583929131,0.872999475519534,14889.0185546875,56.85733,60.61529
706483,Kharkiv,Europe,5.0,-0.7745052039462319,5389.47314453125,49.98177,36.25475
3173435,Milan,Europe,2.130485922356667,0.1887455682742032,40385.3413957669,45.46427,9.18951
792680,Belgrade,Europe,5.083399215324455,0.841523523007444,13679.2065983557,44.80401,20.46513
2867714,Munich,Europe,1.3924940395485335,-0.11077972531895508,56103.7323182554,48.13743,11.57549
520555,Nizhniy Novgorod,Europe,3.9496295839291307,-0.422712910816613,14889.0185546875,56.32867,44.00205
551487,Kazan,Europe,4.949629583929131,0.8911955508637144,14889.0185546875,55.78874,49.12214
1508291,Chelyabinsk,Europe,3.9496295839291307,-0.41862863204089695,14889.0185546875,55.1611,61.42877
1496153,Omsk,Europe,3.9496295839291307,-0.12503250306092983,14889.0185546875,54.99244,73.36859
3067696,Prague,Europe,4.077195093330621,1.4333242442116823,31823.3078290564,50.08804,14.42076
499099,Samara,Europe,3.9496295839291307,-0.12397850827061863,14889.0185546875,53.20767,50.13553
2655603,Birmingham,Europe,0.7084345633476685,-1.3410194256603294,53246.3676145108,52.48142,-1.89983
2618425,Copenhagen,Europe,0.7424765487766827,-0.5801827012109149,71026.4832271897,55.67594,12.56553
727011,Sofia,Europe,4.650315106725666,1.1205131059736284,17596.0173663521,42.69751,23.32415
501175,Rostov-na-Donu,Europe,3.9496295839291307,-0.23654588631876994,14889.0185546875,47.21997,39.70769
479561,Ufa,Europe,3.9496295839291307,-0.4123753788333575,14889.0185546875,54.74306,55.96779
1502026,Krasnoyarsk,Europe,3.9496295839291307,-0.11657351909908709,14889.0185546875,56.03742,92.93136
3143244,Oslo,Europe,-2.0,-3.2413317418568877,86785.4334489176,59.91273,10.74609
472045,Voronezh,Europe,3.9496295839291307,-0.12332455243643015,14889.0185546875,51.66833,39.19204
2800866,Brussels,Europe,0.33601063831288336,-1.5638089539987021,56614.5679499036,50.85045,4.34878
698740,Odesa,Europe,6.0,0.5653569949216486,5389.47314453125,46.48572,30.74383
472757,Volgograd,Europe,3.9496295839291307,-0.40346956210475593,14889.0185546875,48.71378,44.4976
511196,Perm,Europe,3.9496295839291307,-0.15802208465088174,14889.0185546875,58.01046,56.25017
709930,Dnipro,Europe,5.0,-0.7396898593437129,5389.47314453125,48.46664,35.04066
2886242,Köln,Europe,1.3924940395485335,-0.19595187197410002,56103.7323182554,50.93333,6.95
3172394,Naples,Europe,2.130485922356667,0.21868194713735134,40385.3413957669,40.85216,14.26811
709717,Donetsk,Europe,3.0,-2.7333433395861206,5389.47314453125,48.023,37.80224
542420,Krasnodar,Europe,4.949629583929131,0.8950295826011141,14889.0185546875,45.04534,38.98178
2995469,Marseille,Europe,1.4982716943291816,-0.4644356809007095,46103.0840855884,43.29695,5.38107
2747891,Rotterdam,Europe,0.13014384658917777,-1.163266137218038,67520.4218956281,51.9225,4.47917
3165524,Turin,Europe,2.130485922356667,-0.1032295967867225,40385.3413957669,45.07049,7.68682
498677,Saratov,Europe,3.9496295839291307,-0.10841022638036879,14889.0185546875,51.54048,45.9901
2509954,Valencia,Europe,3.689815373465785,0.9214254257993009,35326.7683069278,39.47391,-0.37966
3094802,Kraków,Europe,4.820201002746025,2.0436640017241148,25103.565661423,50.06143,19.93658
1488754,Tyumen,Europe,4.949629583929131,0.6211022845050307,14889.0185546875,57.15222,65.52722
456172,Riga,Europe,4.007560796235526,0.9205205958629081,23409.0845154775,56.946,24.10589
2759794,Amsterdam,Europe,0.13014384658917777,-1.1228000416817068,67520.4218956281,52.37403,4.88969
702550,Lviv,Europe,6.0,0.2869539316966421,5389.47314453125,49.83826,24.02324
687700,Zaporizhzhya,Europe,3.0,-2.5333750642382196,5389.47314453125,47.85167,35.11714
482283,Tolyatti,Europe,3.9496295839291307,-0.37099483074979833,14889.0185546875,53.5303,49.3461
3104324,Zaragoza,Europe,2.689815373465785,-0.06240262214413228,35326.7683069278,41.65606,-0.87734
2510911,Sevilla,Europe,3.689815373465785,1.1688892509806674,35326.7683069278,37.38283,-5.97317
3081368,Wrocław,Europe,4.820201002746025,1.7393156036041004,25103.565661423,51.10286,17.03006
264371,Athens,Europe,3.8729893384774696,1.1920911381736574,24626.1481858973,37.98376,23.72784
3186886,Zagreb,Europe,3.9366457596791857,0.9922373685449477,24050.4397933135,45.81444,15.97798
2925533,Frankfurt am Main,Europe,1.3924940395485335,-0.3852484545631887,56103.7323182554,50.11552,8.68417
2523920,Palermo,Europe,2.130485922356667,0.23226276831610937,40385.3413957669,38.1166,13.3636
2332459,Lagos,Africa,4.164106193303965,1.5954306696359604,1084.16041805436,6.45407,3.39467
360630,Cairo,Africa,0.8086930974734567,-1.3886798470082993,3338.47371395895,30.06263,31.24967
993800,Johannesburg,Africa,-3.5505245445343956,-4.361425507467695,6267.186814093,-26.20227,28.04363
2293538,Abidjan,Africa,2.7175058945420165,1.574227717817829,2727.8935220697,5.35444,-4.00167
160263,Dar es Salaam,Africa,4.011456858015384,2.131154934619614,1186.71691894531,-6.82349,39.26951
361058,Alexandria,Africa,0.8086930974734567,-1.3352954069141076,3338.47371395895,31.20176,29.91582
2335204,Kano,Africa,3.164106193303965,0.606942898708879,1084.16041805436,12.00012,8.51672
3369157,Cape Town,Africa,-2.5505245445343956,-3.6294804391908055,6267.186814093,-33.92584,18.42322
184745,Nairobi,Africa,3.6038116861674143,2.5963170942267766,2132.43452097647,-1.28333,36.81667
360995,Giza,Africa,0.8086930974734567,-1.3187347986501936,3338.47371395895,30.00944,31.20861
2460596,Bamako,Africa,2.148538474318745,-0.1431004540341987,1094.61949265799,12.60915,-7.97522
344979,Addis Ababa,Africa,4.090097349386955,2.3829827686610017,1133.88279681719,9.02497,38.74689
2553604,Casablanca,Africa,0.5960292457380483,-1.5820478301647531,4153.1943359375,33.58831,-7.61138
2339354,Ibadan,Africa,4.164106193303965,1.395647777801858,1084.16041805436,7.37756,3.90591
1007311,Durban,Africa,-2.5505245445343956,-3.288207860656957,6267.186814093,-29.8579,31.0292
2240449,Luanda,Africa,-0.19018235159358454,-1.482793411021054,2665.87444776753,-8.83682,13.23432
2352778,Abuja,Africa,4.164106193303965,1.7338274503793807,1084.16041805436,9.05785,7.49508
2253354,Dakar,Africa,4.138483959474559,1.3911564013626379,1773.21829923448,14.6937,-17.44406
53654,Mogadishu,Africa,2.840783654216797,-0.1014732461598955,629.538899449007,2.03711,45.34375
2298890,Kumasi,Africa,3.219290943093108,0.630930868328381,2390.77237652715,6.68848,-1.62443
2507480,Algiers,Africa,-2.785173892074905,-3.708500927759753,5752.99076651465,36.73225,3.08746
909137,Lusaka,Africa,4.010872623125916,2.0201777726593515,1187.10943350064,-15.40669,28.28713
2324774,Port Harcourt,Africa,4.164106193303965,1.443829150267363,1084.16041805436,4.77742,7.0134
964137,Pretoria,Africa,-2.5505245445343956,-3.236816791152709,6267.186814093,-25.74486,28.18783
379252,Khartoum,Africa,2.3122846246354,0.27866753806307676,984.607666015625,15.55177,32.53241
2306104,Accra,Africa,3.219290943093108,0.6539407867473237,2390.77237652715,5.55602,-0.1969
195272,Kakamega,Africa,2.6038116861674143,1.5919383212968903,2132.43452097647,0.28422,34.75229
2335727,Kaduna,Africa,3.164106193303965,0.45591629768804953,1084.16041805436,10.52641,7.43879
365137,Omdurman,Africa,2.3122846246354,0.24530190095226656,984.607666015625,15.64453,32.47773
2347283,Benin City,Africa,4.164106193303965,1.4592390152746981,1084.16041805436,6.33815,5.62575
953781,Soweto,Africa,-3.5505245445343956,-4.241783674998361,6267.186814093,-26.26781,27.85849
232422,Kampala,Africa,5.173405429301824,3.7827418170489744,1077.91278452817,0.31628,32.58219
2538475,Rabat,Africa,0.5960292457380483,-1.5317047607765994,4153.1943359375,34.01325,-6.83255
2326016,Onitsha,Africa,4.164106193303965,1.4714430430686862,1084.16041805436,6.14978,6.78569
890299,Harare,Africa,0.060874724201067654,-0.7201249836903152,2497.20332208763,-17.82772,31.05337
2427123,N'Djamena,Africa,2.346590087188686,0.5752036631471418,961.55975562506,12.10672,15.0444
2293521,Abobo,Africa,-0.2824941054579835,-1.2881454612603542,2727.8935220697,5.41613,-4.0159
2232593,Douala,Africa,3.0539553199705285,1.5259406380296248,1830.00833684727,4.04827,9.70428
2440485,Niamey,Africa,2.6834087328419827,-2.823088512358108,735.270255787226,13.51366,2.1098
2210247,Tripoli,Africa,-6.0,-7.130989879014857,6569.16408678648,32.88743,13.18733
2220957,Yaoundé,Africa,3.0539553199705285,1.2447823835590792,1830.00833684727,3.86667,11.51667
1040652,Maputo,Africa,4.800241600436559,2.320963870948358,656.776824637306,-25.96553,32.58322
349076,Shubrā al Khaymah,Africa,0.8086930974734567,-1.2070459096198998,3338.47371395895,30.12511,31.25053
186301,Mombasa,Africa,3.6038116861674143,2.3913208765182485,2132.43452097647,-4.05466,39.66359
1039854,Matola,Africa,4.800241600436559,2.268559769940524,656.776824637306,-25.96222,32.45889
2548885,Fes,Africa,0.5960292457380483,-1.5599951354397001,4153.1943359375,34.03313,-5.00028
2353151,Aba,Africa,4.164106193303965,1.497330416266121,1084.16041805436,5.10658,7.36667
202061,Kigali,Africa,6.289888203173817,1.674187462065941,999.65456165547,-1.94995,30.05885
2244322,Touba,Africa,4.138483959474559,1.4673873332151341,1773.21829923448,14.86229,-15.87532
927967,Lilongwe,Africa,4.0,1.1693008839134094,522.570393642547,-13.96692,33.78725
2331447,Maiduguri,Africa,2.164106193303965,-0.4987603300146253,1084.16041805436,11.84692,13.15712
152224,Mwanza,Africa,4.011456858015384,2.2020914762242096,1186.71691894531,-2.51667,32.9
2337639,Ilorin,Africa,4.164106193303965,1.503670663247525,1084.16041805436,8.49664,4.54214
964420,Gqeberha,Africa,-2.5505245445343956,-3.1988724974897202,6267.186814093,-33.96109,25.61494
2322911,Sokoto,Africa,3.164106193303965,0.5070192002997187,1084.16041805436,13.06269,5.24322
2335953,Jos,Africa,4.164106193303965,1.778583444155454,1084.16041805436,9.92849,8.89212
2530335,Tangier,Africa,0.5960292457380483,-1.7910886412983507,4153.1943359375,35.76727,-5.79975
3530597,Mexico City,North America,4.684469516451273,2.474461678342811,14185.7812248529,19.42847,-99.12766
5128581,New York City,North America,-3.0,-2.6810148142661943,84534.0407841548,40.71427,-74.00597
5368361,Los Angeles,North America,-3.0,-2.2486181680735156,84534.0407841548,34.05223,-118.24368
6167865,Toronto,North America,1.2981983545163391,0.8514117100580005,54340.3477224733,43.70643,-79.39864
5110302,Brooklyn,North America,-3.0,-2.2193486219556027,84534.0407841548,40.6501,-73.94958
4887398,Chicago,North America,-3.0,-2.5749671768047167,84534.0407841548,41.85003,-87.65005
5133273,Queens,North America,-3.0,-2.24264109880298,84534.0407841548,40.68149,-73.83652
4699066,Houston,North America,-3.0,-2.562461022217465,84534.0407841548,29.76328,-95.36327
3492908,Santo Domingo,North America,5.046049342803057,2.028928257982379,10875.6618443092,18.47186,-69.89232
3553478,Havana,North America,4.1848191884771815,1.4864490956429393,9605.27914559614,23.13302,-82.38304
3981609,Tijuana,North America,3.684469516451273,1.6055266765247307,14185.7812248529,32.5027,-117.00371
3526683,Iztapalapa,North America,3.684469516451273,1.302855760624544,14185.7812248529,19.35529,-99.06224
6077243,Montréal,North America,1.2981983545163391,1.1285390489055835,54340.3477224733,45.50884,-73.58781
3521081,Puebla,North America,4.684469516451273,2.3100683702431972,14185.7812248529,19.04778,-98.20723
5308655,Phoenix,North America,-3.0,-2.2512648292912543,84534.0407841548,33.44838,-112.07404
3529612,Ecatepec de Morelos,North America,1.6844695164512729,-0.6874416409116879,14185.7812248529,19.60492,-99.06064
3991164,Santiago de Querétaro,North America,4.684469516451273,2.5417475853268865,14185.7812248529,20.58806,-100.38806
3998655,León de los Aldama,North America,4.684469516451273,2.3161654315230518,14185.7812248529,21.12908,-101.67374
4560349,Philadelphia,North America,-3.0,-2.1843203006022316,84534.0407841548,39.95238,-75.16362
4726206,San Antonio,North America,-3.0,-2.5255541542913145,84534.0407841548,29.42412,-98.49363
4013708,Ciudad Juárez,North America,3.684469516451273,1.621325582089245,14185.7812248529,31.72024,-106.46084
5125771,Manhattan,North America,-3.0,-2.1854758340886926,84534.0407841548,40.78343,-73.96625
3979770,Zapopan,North America,4.684469516451273,2.3221661146893187,14185.7812248529,20.72111,-103.38742
5391811,San Diego,North America,-2.0,-1.179917776808506,84534.0407841548,32.71571,-117.16472
4005539,Guadalajara,North America,4.684469516451273,2.327801452523092,14185.7812248529,20.67738,-103.34749
5110266,The Bronx,North America,-4.0,-3.1921519777038094,84534.0407841548,40.84985,-73.86641
4684888,Dallas,North America,-3.0,-2.5130573827930354,84534.0407841548,32.78306,-96.80667
5913490,Calgary,North America,1.2981983545163391,1.245543562412795,54340.3477224733,51.05011,-114.08529
3718426,Port-au-Prince,North America,2.0,-2.0771849718466653,2142.62330526788,18.54349,-72.33881
3523349,Mérida,North America,5.684469516451273,3.5344958598624814,14185.7812248529,20.967,-89.62318
3492914,Santiago de los Caballeros,North America,5.046049342803057,1.7735421100532314,10875.6618443092,19.45036,-70.69085
3514674,Gustavo Adolfo Madero,North America,3.684469516451273,1.4708082526756812,14185.7812248529,19.49392,-99.11075
3995465,Monterrey,North America,4.684469516451273,2.345464128063748,14185.7812248529,25.68435,-100.31721
3530589,Ciudad Nezahualcoyotl,North America,3.684469516451273,1.5276876893988849,14185.7812248529,19.40061,-99.01483
3996069,Mexicali,North America,3.684469516451273,1.3538860139600892,14185.7812248529,32.62781,-115.45446
6094817,Ottawa,North America,1.2981983545163391,1.2702015885487885,54340.3477224733,45.41117,-75.69812
5946768,Edmonton,North America,0.29819835451633914,-0.058375372157724925,54340.3477224733,53.55014,-113.46871
4160021,Jacksonville,North America,-3.0,-2.241533707787897,84534.0407841548,30.33218,-81.65565
4691930,Fort Worth,North America,-3.0,-2.4887324157533657,84534.0407841548,32.72541,-97.32085
5392171,San Jose,North America,-3.0,-2.264351591120609,84534.0407841548,37.33939,-121.89496
3598132,Guatemala City,North America,4.562252686193963,2.053384728586031,6150.02571438505,14.64072,-90.51327
4671654,Austin,North America,-2.0,-1.4857194267892906,84534.0407841548,30.26715,-97.74306
3617763,Managua,North America,4.922998688246023,0.8596207757223651,2847.53966339498,12.13282,-86.2504
3489854,Kingston,North America,5.387064841730404,1.5660085026778612,7753.8006955432,17.99702,-76.79358
4014338,Chihuahua,North America,4.684469516451273,2.599716139813671,14185.7812248529,28.63528,-106.08889
4509177,Columbus,North America,-3.0,-2.479957350416874,84534.0407841548,39.96118,-82.99879
4460243,Charlotte,North America,-3.0,-2.219872327105718,84534.0407841548,35.22709,-80.84313
3531673,Cancún,North America,4.684469516451273,2.367199267735307,14185.7812248529,21.17429,-86.84656
4259418,Indianapolis,North America,-3.0,-2.152794161719423,84534.0407841548,39.76838,-86.15804
3600949,Tegucigalpa,North America,2.859763260473666,-1.1299088344376687,3426.43483328923,14.0818,-87.20681
3522790,Naucalpan de Juárez,North America,3.684469516451273,1.5616595737612808,14185.7812248529,19.47851,-99.23963
3448439,São Paulo,South America,3.214849045959409,0.0013536231640651764,10310.5488778166,-23.5475,-46.63611
3936456,Lima,South America,3.0642401213261063,-0.05573382553463979,8452.37167056621,-12.04318,-77.02824
3688689,Bogotá,South America,4.3079540815635555,0.9509448746053657,7919.20886825345,4.60971,-74.08175
3451190,Rio de Janeiro,South America,3.214849045959409,0.3850384706164407,10310.5488778166,-22.90642,-43.18223
3871336,Santiago,South America,0.2896475612926226,-2.051239591882613,16709.8893972307,-33.45694,-70.64827
3646738,Caracas,South America,2.0,-1.77365058827018,4217.59102643391,10.48801,-66.87919
3435910,Buenos Aires,South America,1.5421768407209235,-0.8588720053662109,13969.7836603737,-34.61315,-58.37723
3652462,Quito,South America,4.785406733586257,1.2592627798944145,6874.705739766,-0.22985,-78.52495
3657509,Guayaquil,South America,4.785406733586257,1.5563443753924995,6874.705739766,-2.19616,-79.88621
3470127,Belo Horizonte,South America,3.214849045959409,0.13590700133433575,10310.5488778166,-19.92083,-43.93778
3450554,Salvador,South America,3.214849045959409,0.3625878607130746,10310.5488778166,-12.97563,-38.49096
3399415,Fortaleza,South America,3.214849045959409,0.14706319769417053,10310.5488778166,-3.71722,-38.54306
3687925,Cali,South America,4.3079540815635555,1.350614290247325,7919.20886825345,3.43054,-76.5199
3663517,Manaus,South America,2.214849045959409,-0.8460028188268032,10310.5488778166,-3.10194,-60.025
3469058,Brasília,South America,3.214849045959409,0.46804040871733665,10310.5488778166,-15.77972,-47.92972
3860259,Córdoba,South America,1.5421768407209235,-1.1690345432776597,13969.7836603737,-31.40648,-64.18853
3911925,La Paz,South America,4.906943832350798,1.1870450870443308,4421.16609889999,-16.5,-68.15
3674962,Medellín,South America,4.3079540815635555,1.070258752267506,7919.20886825345,6.245,-75.57151
3464975,Curitiba,South America,3.214849045959409,0.45731652782025467,10310.5488778166,-25.42778,-49.27306
3904906,Santa Cruz de la Sierra,South America,5.906943832350798,1.8891636620754308,4421.16609889999,-17.78629,-63.18117
3633009,Maracaibo,South America,3.0,-0.4342975520727643,4217.59102643391,10.64232,-71.61089
3390760,Recife,South America,2.214849045959409,-0.8198777628437304,10310.5488778166,-8.05389,-34.88111
3625549,Valencia,South America,2.0,-1.3924288321799603,4217.59102643391,10.16153,-68.00044
3462377,Goiânia,South America,3.214849045959409,0.18665474729859444,10310.5488778166,-16.67861,-49.25389
3405870,Belém,South America,2.214849045959409,-0.5289275543599699,10310.5488778166,-1.45583,-48.50444
3452925,Porto Alegre,South America,3.214849045959409,0.4829449945829518,10310.5488778166,-30.03283,-51.23019
3439389,Asunción,South America,3.995041257637526,0.20262126517468237,6416.09708970845,-25.28646,-57.647
3946083,Callao,South America,3.0642401213261063,0.04812729376189928,8452.37167056621,-12.05162,-77.13452
3441575,Montevideo,South America,-3.0,-4.445671269565327,23906.5133029408,-34.90328,-56.18816
3648522,Barquisimeto,South America,3.0,-0.6953123930185159,4217.59102643391,10.0647,-69.35703
3689147,Barranquilla,South America,4.3079540815635555,1.4117846326547117,7919.20886825345,10.96854,-74.78132
3461786,Guarulhos,South America,2.214849045959409,-0.7891583877867516,10310.5488778166,-23.46278,-46.53333
3395981,Maceió,South America,3.214849045959409,0.4901778486228645,10310.5488778166,-9.66583,-35.73528
3467865,Campinas,South America,3.214849045959409,0.22198340828934793,10310.5488778166,-22.90556,-47.06083
3947322,Arequipa,South America,4.064240121326106,1.084449869955444,8452.37167056621,-16.39899,-71.53747
3645528,Ciudad Guayana,South America,3.0,-0.4333732849475149,4217.59102643391,8.35122,-62.64102
3838583,Rosario,South America,1.5421768407209235,-1.0982127331318545,13969.7836603737,-32.94682,-60.63932
3691175,Trujillo,South America,3.0642401213261063,0.03253177079659686,8452.37167056621,-8.11599,-79.02998
3388368,São Luís,South America,3.214849045959409,0.232404754850287,10310.5488778166,-2.52972,-44.30278
3687238,Cartagena,South America,4.3079540815635555,1.368295725136349,7919.20886825345,10.39817,-75.49328
3467747,Campo Grande,South America,3.214849045959409,0.23348943029859104,10310.5488778166,-20.44278,-54.64639
3394023,Natal,South America,3.214849045959409,0.4571956637607153,10310.5488778166,-5.795,-35.20944
3386496,Teresina,South America,2.214849045959409,-0.7630188397225899,10310.5488778166,-5.08917,-42.80194
3919968,Cochabamba,South America,5.906943832350798,2.2299028208484075,4421.16609889999,-17.38195,-66.15995
3456160,Nova Iguaçu,South America,2.214849045959409,-0.7580090733821114,10310.5488778166,-22.75917,-43.45111
3464374,Duque de Caxias,South America,2.214849045959409,-0.5855004040919942,10310.5488778166,-22.78556,-43.31167
3397277,João Pessoa,South America,3.214849045959409,0.24261721678724246,10310.5488778166,-7.115,-34.86306
3648559,Barcelona,South America,2.0,-1.3125198688654764,4217.59102643391,10.1384,-64.68769
3685533,Cúcuta,South America,3.3079540815635555,0.15413251495627733,7919.20886825345,7.90745,-72.5049
3449344,São Bernardo do Campo,South America,3.214849045959409,0.5105864597666221,10310.5488778166,-23.69389,-46.565
2147714,Sydney,Oceania,2.5,0.1364420003346254,64603.9856308464,-33.86785,151.20732
2158177,Melbourne,Oceania,2.5,-0.19944400854963362,64603.9856308464,-37.814,144.96332
2174003,Brisbane,Oceania,2.5,0.18789265207270134,64603.9856308464,-27.46794,153.02809
2063523,Perth,Oceania,2.5,-0.12489064385741244,64603.9856308464,-31.95224,115.8614
